<?xml version="1.0" encoding="UTF-8"?>
<kml xmlns="http://earth.google.com/kml/2.0">
<Document>
<Style id="z1">
<IconStyle>
<Icon>
<href>http://www.google.com/intl/en_us/mapfiles/ms/micons/blue-dot.png</href>
</Icon>
</IconStyle>
</Style>

<Folder>
<name>Home</name>
<Placemark><name>MyHome</name>
<styleUrl>#z1</styleUrl><Point><coordinates>-118.28873545702392,34.02704111526119</coordinates></Point> 
</Placemark>
</Folder>

<Folder>
<name>Waterworks</name>
<Placemark><name>CinematicArtsF</name>
<styleUrl>#z1</styleUrl><Point><coordinates>-118.28643705569854,34.02341400213798</coordinates></Point> 
</Placemark>
<Placemark><name>EileenNorrisF</name>
<styleUrl>#z1</styleUrl><Point><coordinates>-118.28563686179062,34.0222446561058</coordinates></Point> 
</Placemark>
<Placemark><name>LeaveyF</name>
<styleUrl>#z1</styleUrl><Point><coordinates>-118.28287364563872,34.021450274116745</coordinates></Point>
</Placemark>
<Placemark><name>CarolynCraigF</name>
<styleUrl>#z1</styleUrl><Point><coordinates>-118.28343419693724,34.020489258295896</coordinates></Point> 
</Placemark>
<Placemark><name>DohenyF</name>
<styleUrl>#z1</styleUrl><Point><coordinates>-118.28456761692429,34.02053795643786</coordinates></Point>
</Placemark>
<Placemark><name>PatsyForrestF</name>
<styleUrl>#z1</styleUrl><Point><coordinates>-118.28520808751408,34.020196185486576</coordinates></Point>
</Placemark>
</Folder>

<Folder>
<name>Libraries</name>
<Placemark><name>WilsonDentalLib</name>
<styleUrl>#z1</styleUrl><Point><coordinates>-118.28597895140501,34.02370892953405</coordinates></Point> 
</Placemark>
<Placemark><name>LeaveyLib</name>
<styleUrl>#z1</styleUrl><Point><coordinates>-118.28293593867708,34.02179057701038</coordinates></Point> 
</Placemark>
<Placemark><name>DohenyLib</name>
<styleUrl>#z1</styleUrl><Point><coordinates>-118.28371035911809,34.020184253601485</coordinates></Point>
</Placemark>
<Placemark><name>HooseLib</name>
<styleUrl>#z1</styleUrl><Point><coordinates>-118.2866052695459,34.01871004909205</coordinates></Point> 
</Placemark>
<Placemark><name>HelenLib</name>
<styleUrl>#z1</styleUrl><Point><coordinates>-118.28801069467708,34.01921811736642</coordinates></Point>
</Placemark>
<Placemark><name>ScienceEngLib</name>
<styleUrl>#z1</styleUrl><Point><coordinates>-118.28879810874089,34.01962900542824</coordinates></Point>
</Placemark>
</Folder>

<Placemark>
<name>ConvexHull</name>
<Style><LineStyle><color>ffff3BB4</color></LineStyle><PolyStyle><color>f061FF33</color></PolyStyle></Style>
<Polygon>
<outerBoundaryIs>
<LinearRing>
<coordinates>-118.2866052695459,34.01871004909205 -118.28801069467708,34.01921811736642 -118.28879810874089,34.01962900542824 -118.28873545702392,34.02704111526119 -118.28293593867708,34.02179057701038 -118.28287364563872,34.021450274116745 -118.28343419693724,34.020489258295896 -118.28371035911809,34.020184253601485 -118.2866052695459,34.01871004909205</coordinates>
</LinearRing>
</outerBoundaryIs>
</Polygon> 
</Placemark>

<Placemark>
<name>Neighbour</name>
<description>Neighbour1</description>
<Style><LineStyle><color>ff0000ff</color><width>2</width></LineStyle></Style>
<LineString>
<coordinates>-118.28873545702392,34.02704111526119 -118.28643705569854,34.02341400213798</coordinates>
</LineString>
</Placemark>

</Document>
</kml>